var data = { 'count': 13, 'items': [
	{
		'id': 23,
		'dns': 'alfortville-championnat',
		'name': 'Alfortville Championnat',
		'type': '1',
		'genre': '0',
		'sport': '1',
		'manager': 'Gilles',
		'type_gestionnaire': '0',
		'address': 'Alfortville',
		'lat': '48.80093',
		'lng': '2.422317',
		'zoom': '12'
	},
	{
		'id': 43,
		'dns': 'alfortville-champions-league',
		'name': 'Alfortville Champions League',
		'type': '2',
		'genre': '0',
		'sport': '1',
		'manager': 'Fabien',
		'type_gestionnaire': '0',
		'address': 'Alfortville',
		'lat': '48.80108',
		'lng': '2.422467',
		'zoom': '12'
	},
	{
		'id': 17,
		'dns': 'alfortville-masters',
		'name': 'Alfortville Masters',
		'type': '2',
		'genre': '0',
		'sport': '1',
		'manager': 'gilles',
		'type_gestionnaire': '0',
		'address': 'Alfortville',
		'lat': '48.80108',
		'lng': '2.422167',
		'zoom': '12'
	},
	{
		'id': 11,
		'dns': 'national1',
		'name': 'National1',
		'type': '1',
		'genre': '0',
		'sport': '2',
		'manager': 'strada',
		'type_gestionnaire': '0',
		'address': 'France',
		'lat': '48.856614',
		'lng': '2.3522219',
		'zoom': '12'
	},
	{
		'id': 8,
		'dns': 'strada',
		'name': 'Strada',
		'type': '0',
		'genre': '0',
		'sport': '1',
		'manager': 'strada',
		'type_gestionnaire': '0',
		'address': 'alfortville',
		'lat': '48.78057103618104',
		'lng': '2.428150177001953',
		'zoom': '14'
	},
	{
		'id': 288,
		'dns': 'toto-4zmea',
		'name': 'toto:4zMeA',
		'type': '2',
		'genre': '0',
		'sport': '1',
		'manager': 'toto',
		'type_gestionnaire': '0',
		'address': 'Houilles',
		'lat': '48.926916',
		'lng': '2.18888',
		'zoom': '12'
	},
	{
		'id': 294,
		'dns': 'toto-6aaat',
		'name': 'toto:6aAat',
		'type': '2',
		'genre': '0',
		'sport': '1',
		'manager': 'toto',
		'type_gestionnaire': '0',
		'address': 'Houilles',
		'lat': '48.927066',
		'lng': '2.18903',
		'zoom': '12'
	},
	{
		'id': 290,
		'dns': 'toto-agzjp',
		'name': 'toto:AgzJP',
		'type': '0',
		'genre': '0',
		'sport': '1',
		'manager': 'toto',
		'type_gestionnaire': '0',
		'address': 'Houilles',
		'lat': '48.927066',
		'lng': '2.18873',
		'zoom': '12'
	},
	{
		'id': 292,
		'dns': 'toto-byevj',
		'name': 'toto:bYEVJ',
		'type': '1',
		'genre': '0',
		'sport': '1',
		'manager': 'toto',
		'type_gestionnaire': '1',
		'address': 'Houilles',
		'lat': '48.926766',
		'lng': '2.18873',
		'zoom': '12'
	},
	{
		'id': 289,
		'dns': 'toto-f2nzm',
		'name': 'toto:F2NzM',
		'type': '2',
		'genre': '0',
		'sport': '1',
		'manager': 'toto',
		'type_gestionnaire': '0',
		'address': 'Houilles',
		'lat': '48.926766',
		'lng': '2.18903',
		'zoom': '12'
	},
	{
		'id': 287,
		'dns': 'toto-gsan3',
		'name': 'toto:gSAN3',
		'type': '0',
		'genre': '0',
		'sport': '1',
		'manager': 'toto',
		'type_gestionnaire': '0',
		'address': 'Houilles',
		'lat': '48.926916',
		'lng': '2.18858',
		'zoom': '12'
	},
	{
		'id': 291,
		'dns': 'toto-qhhdk',
		'name': 'toto:qHHDK',
		'type': '0',
		'genre': '0',
		'sport': '1',
		'manager': 'toto',
		'type_gestionnaire': '0',
		'address': 'Houilles',
		'lat': '48.926916',
		'lng': '2.18918',
		'zoom': '12'
	},
	{
		'id': 293,
		'dns': 'toto-qqzp9',
		'name': 'toto:qqZP9',
		'type': '1',
		'genre': '0',
		'sport': '1',
		'manager': 'toto',
		'type_gestionnaire': '0',
		'address': 'Houilles',
		'lat': '48.927216',
		'lng': '2.18918',
		'zoom': '12'
	}
]}